{
  "owners": [
    {
      "id": 1,
      "name": "John Doe",
      "nic": "123456789V",
      "phone": "0711234567",
      "address": "Colombo",
      "vehicleType": "Car",
      "registrationNo": "AB-1234",
      "registrationDate": "2025-01-01"
    },
    {
      "id": 2,
      "name": "Jane Smith",
      "nic": "987654321V",
      "phone": "0729876543",
      "address": "Kandy",
      "vehicleType": "Motorcycle",
      "registrationNo": "MC-5678",
      "registrationDate": "2025-01-02"
    },
    {
      "id": 3,
      "name": "Alice Johnson",
      "nic": "135792468V",
      "phone": "0751237890",
      "address": "Galle",
      "vehicleType": "Truck",
      "registrationNo": "TR-3456",
      "registrationDate": "2025-01-03"
    },
    {
      "id": 4,
      "name": "Bob Brown",
      "nic": "246813579V",
      "phone": "0779871234",
      "address": "Negombo",
      "vehicleType": "Car",
      "registrationNo": "AB-4321",
      "registrationDate": "2025-01-04"
    },
    {
      "id": 5,
      "name": "Charlie Davis",
      "nic": "112233445V",
      "phone": "0761122334",
      "address": "Matara",
      "vehicleType": "Motorcycle",
      "registrationNo": "MC-8765",
      "registrationDate": "2025-01-05"
    },
    {
      "id": 6,
      "name": "Emily Wilson",
      "nic": "998877665V",
      "phone": "0789988776",
      "address": "Kurunegala",
      "vehicleType": "Truck",
      "registrationNo": "TR-6543",
      "registrationDate": "2025-01-06"
    },
    {
      "id": 7,
      "name": "Frank Green",
      "nic": "556677889V",
      "phone": "0715566778",
      "address": "Jaffna",
      "vehicleType": "Car",
      "registrationNo": "AB-5678",
      "registrationDate": "2025-01-07"
    },
    {
      "id": 8,
      "name": "Grace Taylor",
      "nic": "334455667V",
      "phone": "0743344556",
      "address": "Batticaloa",
      "vehicleType": "Motorcycle",
      "registrationNo": "MC-1234",
      "registrationDate": "2025-01-08"
    },
    {
      "id": 9,
      "name": "Hannah Walker",
      "nic": "221133445V",
      "phone": "0792211334",
      "address": "Trincomalee",
      "vehicleType": "Truck",
      "registrationNo": "TR-9876",
      "registrationDate": "2025-01-09"
    },
    {
      "id": 10,
      "name": "Ian Turner",
      "nic": "443322110V",
      "phone": "0704433221",
      "address": "Anuradhapura",
      "vehicleType": "Car",
      "registrationNo": "AB-8765",
      "registrationDate": "2025-01-10"
    }
  ],

  "stationOwners": [
    {
      "name": "John Doe",
      "nic": "987654321V",
      "phone": "0711234567",
      "address": "123 Main Street, Colombo",
      "stationName": "Doe Fuel Station",
      "registrationNo": "REG1234",
      "location": "Colombo",
      "registrationDate": "2024-01-10",
      "status": "Active"
    },
    {
      "name": "Jane Smith",
      "nic": "123456789V",
      "phone": "0729876543",
      "address": "456 High Road, Galle",
      "stationName": "Smith Gas Station",
      "registrationNo": "REG5678",
      "location": "Galle",
      "registrationDate": "2023-12-01",
      "status": "Inactive"
    },
    {
      "name": "Michael Brown",
      "nic": "112233445V",
      "phone": "0775432109",
      "address": "789 Ocean Avenue, Kandy",
      "stationName": "Brown's Station",
      "registrationNo": "REG9101",
      "location": "Kandy",
      "registrationDate": "2022-11-15",
      "status": "Active"
    },
    {
      "name": "Emily Davis",
      "nic": "556677889V",
      "phone": "0751122334",
      "address": "321 Hilltop Lane, Jaffna",
      "stationName": "Davis Fuel Center",
      "registrationNo": "REG2222",
      "location": "Jaffna",
      "registrationDate": "2023-06-20",
      "status": "Inactive"
    },
    {
      "name": "Chris Wilson",
      "nic": "998877665V",
      "phone": "0719988776",
      "address": "654 Mountain Road, Matara",
      "stationName": "Wilson Energy",
      "registrationNo": "REG3344",
      "location": "Matara",
      "registrationDate": "2021-03-15",
      "status": "Active"
    },
    {
      "name": "Sophia Turner",
      "nic": "445566778V",
      "phone": "0765544332",
      "address": "98 River Bank, Anuradhapura",
      "stationName": "Turner Gas Station",
      "registrationNo": "REG5566",
      "location": "Anuradhapura",
      "registrationDate": "2022-09-10",
      "status": "Inactive"
    },
    {
      "name": "Oliver Martin",
      "nic": "221133445V",
      "phone": "0701122334",
      "address": "231 Sunset Boulevard, Negombo",
      "stationName": "Martin Petroleum",
      "registrationNo": "REG7788",
      "location": "Negombo",
      "registrationDate": "2023-02-05",
      "status": "Active"
    },
    {
      "name": "Amelia Scott",
      "nic": "778899001V",
      "phone": "0742233445",
      "address": "12 Pine Street, Kurunegala",
      "stationName": "Scott Fuel Supplies",
      "registrationNo": "REG9900",
      "location": "Kurunegala",
      "registrationDate": "2020-12-20",
      "status": "Active"
    },
    {
      "name": "Liam Johnson",
      "nic": "334455667V",
      "phone": "0723344556",
      "address": "76 Lakeview Terrace, Badulla",
      "stationName": "Johnson's Energy Hub",
      "registrationNo": "REG1122",
      "location": "Badulla",
      "registrationDate": "2023-07-01",
      "status": "Inactive"
    },
    {
      "name": "Isabella Evans",
      "nic": "998811223V",
      "phone": "0779988776",
      "address": "45 Forest Lane, Batticaloa",
      "stationName": "Evans Fuel Point",
      "registrationNo": "REG2233",
      "location": "Batticaloa",
      "registrationDate": "2021-05-18",
      "status": "Active"
    }
  ]
}
